City_ID,City,Country,Date,Lat,Lng,Max Temp,Humidity,Cloudiness,Wind Speed,Current Description,Rain Inches(last 3 hrs),Snow Inches(last 3 hrs)
0,Lebu,CL,2020-02-22 06:41:31,-37.62,-73.65,49.96,98,4,1.86,clear sky,0.0,0.0
1,Mahebourg,MU,2020-02-22 06:41:31,-20.41,57.7,82.99,58,20,5.82,few clouds,0.0,0.0
2,East London,ZA,2020-02-22 06:41:32,-33.02,27.91,71.6,94,90,11.41,overcast clouds,0.0,0.0
3,Okhotsk,RU,2020-02-22 06:41:32,59.38,143.3,-4.58,78,100,0.65,overcast clouds,0.0,0.0
4,Puerto Ayora,EC,2020-02-22 06:41:32,-0.74,-90.35,78.13,86,47,3.74,light rain,0.19,0.0
5,Pingliang,CN,2020-02-22 06:39:03,35.54,106.69,46.36,34,0,6.6,clear sky,0.0,0.0
6,Atuona,PF,2020-02-22 06:41:33,-9.8,-139.03,81.72,78,98,15.82,overcast clouds,0.0,0.0
7,Biak,ID,2020-02-22 06:41:33,-0.91,122.88,86.79,67,91,8.08,light rain,0.5,0.0
8,Benton Harbor,US,2020-02-22 06:41:33,42.12,-86.45,30.99,63,1,16.11,clear sky,0.0,0.0
9,Punta Arenas,CL,2020-02-22 06:41:34,-53.15,-70.92,53.6,81,79,14.99,broken clouds,0.0,0.0
10,Coromandel,BR,2020-02-22 06:41:34,-18.47,-47.2,66.27,97,100,0.81,light rain,2.94,0.0
11,Half Moon Bay,US,2020-02-22 06:41:34,37.46,-122.43,61.0,44,75,5.82,broken clouds,0.0,0.0
12,Hobart,AU,2020-02-22 06:38:41,-42.88,147.33,73.0,49,16,17.22,few clouds,0.0,0.0
13,Albany,US,2020-02-22 06:41:34,42.6,-73.97,26.6,42,1,8.05,clear sky,0.0,0.0
14,Moussoro,TD,2020-02-22 06:41:35,13.64,16.49,67.01,18,0,15.99,clear sky,0.0,0.0
15,Oranjemund,NA,2020-02-22 06:41:35,-28.55,16.43,63.46,85,79,14.97,broken clouds,0.0,0.0
16,Hilo,US,2020-02-22 06:41:35,19.73,-155.09,69.8,77,90,6.93,light rain,0.0,0.0
17,Port Hawkesbury,CA,2020-02-22 06:41:35,45.62,-61.35,12.99,50,1,3.36,clear sky,0.0,0.0
18,Coruche,PT,2020-02-22 06:41:36,38.96,-8.53,57.0,87,0,5.82,clear sky,0.0,0.0
19,Nanortalik,GL,2020-02-22 06:41:36,60.14,-45.24,24.12,81,83,15.32,broken clouds,0.0,0.0
20,Tiksi,RU,2020-02-22 06:41:36,71.69,128.87,-9.06,86,74,6.91,broken clouds,0.0,0.0
21,Kang,BW,2020-02-22 06:41:36,-23.68,22.79,76.24,58,99,5.26,overcast clouds,0.0,0.0
22,Batemans Bay,AU,2020-02-22 06:41:37,-35.72,150.18,69.01,77,96,5.99,light rain,0.13,0.0
23,Longyearbyen,SJ,2020-02-22 06:41:37,78.22,15.64,3.2,71,40,20.8,scattered clouds,0.0,0.0
24,Hithadhoo,MV,2020-02-22 06:41:37,-0.6,73.08,81.41,78,98,9.04,light rain,0.69,0.0
25,Hermanus,ZA,2020-02-22 06:41:38,-34.42,19.23,71.01,79,94,7.0,overcast clouds,0.0,0.0
26,Prado,BR,2020-02-22 06:41:38,-17.34,-39.22,81.01,84,66,17.54,broken clouds,0.0,0.0
27,Cidreira,BR,2020-02-22 06:41:38,-30.18,-50.21,66.49,69,0,23.69,clear sky,0.0,0.0
28,Fortuna,US,2020-02-22 06:41:38,40.6,-124.16,48.99,93,90,1.23,overcast clouds,0.0,0.0
29,Kaitangata,NZ,2020-02-22 06:41:38,-46.28,169.85,57.0,51,16,8.99,few clouds,0.0,0.0
30,Ushuaia,AR,2020-02-22 06:41:08,-54.8,-68.3,55.4,76,40,17.22,scattered clouds,0.0,0.0
31,Komsomolskiy,UZ,2020-02-22 06:41:39,40.43,71.72,50.0,66,56,6.93,broken clouds,0.0,0.0
32,Kapaa,US,2020-02-22 06:41:39,22.08,-159.32,73.4,78,90,13.87,overcast clouds,0.0,0.0
33,Krasnoarmeysk,RU,2020-02-22 06:41:39,51.02,45.7,28.0,90,100,1.99,overcast clouds,0.0,0.0
34,Ust-Tsilma,RU,2020-02-22 06:41:39,65.44,52.15,28.44,85,100,11.81,overcast clouds,0.0,0.0
35,Kyzyl-Suu,KG,2020-02-22 06:41:40,42.34,78.0,37.06,74,81,1.81,broken clouds,0.0,0.0
36,Neuquen,AR,2020-02-22 06:37:25,-38.95,-68.06,59.0,51,0,4.7,clear sky,0.0,0.0
37,Brownwood,US,2020-02-22 06:41:40,31.71,-98.99,42.8,68,1,6.93,clear sky,0.0,0.0
38,Khatanga,RU,2020-02-22 06:41:41,71.97,102.5,-11.96,95,0,8.05,clear sky,0.0,0.0
39,Dafeng,CN,2020-02-22 06:41:41,23.45,108.59,71.24,55,3,4.23,clear sky,0.0,0.0
40,Chokurdakh,RU,2020-02-22 06:41:41,70.63,147.92,-21.1,97,55,1.23,broken clouds,0.0,0.0
41,Barrow,US,2020-02-22 06:41:41,71.29,-156.79,-9.4,76,90,5.82,overcast clouds,0.0,0.0
42,Moose Factory,CA,2020-02-22 06:41:42,51.26,-80.61,26.6,63,1,12.75,clear sky,0.0,0.0
43,Faya,SA,2020-02-22 06:41:42,18.39,42.45,66.2,45,99,14.99,overcast clouds,0.0,0.0
44,Diego De Almagro,CL,2020-02-22 06:41:42,-26.37,-70.05,58.86,55,41,2.06,scattered clouds,0.0,0.0
45,Panaba,MX,2020-02-22 06:41:42,21.28,-88.27,72.14,78,58,13.44,light rain,0.25,0.0
46,Onalaska,US,2020-02-22 06:41:42,43.88,-91.24,30.2,68,1,8.05,clear sky,0.0,0.0
47,Igrim,RU,2020-02-22 06:41:43,63.19,64.42,12.06,83,0,9.91,clear sky,0.0,0.0
48,Bluff,NZ,2020-02-22 06:41:43,-46.6,168.33,54.0,63,12,10.0,few clouds,0.0,0.0
49,Hongjiang,CN,2020-02-22 06:41:43,27.11,110.0,55.36,82,100,3.42,overcast clouds,0.0,0.0
50,Yarada,IN,2020-02-22 06:41:43,17.65,83.27,84.2,48,20,5.82,haze,0.0,0.0
51,Vaini,TO,2020-02-22 06:41:44,-21.2,-175.2,80.6,78,75,13.87,smoke,0.0,0.0
52,Torbay,CA,2020-02-22 06:41:44,47.67,-52.73,14.0,72,5,11.41,clear sky,0.0,0.0
53,Rikitea,PF,2020-02-22 06:41:44,-23.12,-134.97,78.22,74,16,8.32,light rain,0.13,0.0
54,Butaritari,KI,2020-02-22 06:41:44,3.07,172.79,79.93,81,100,10.29,light rain,1.69,0.0
55,Jamestown,US,2020-02-22 06:39:37,42.1,-79.24,30.2,53,1,16.11,clear sky,0.0,0.0
56,Nikolskoye,RU,2020-02-22 06:41:45,59.7,30.79,37.99,74,75,17.9,broken clouds,0.0,0.0
57,Mataura,NZ,2020-02-22 06:41:45,-46.19,168.86,54.0,63,60,10.0,broken clouds,0.0,0.0
58,Airai,TL,2020-02-22 06:41:45,-8.93,125.41,76.21,85,100,2.77,moderate rain,4.81,0.0
59,Poum,NC,2020-02-22 06:41:45,-20.23,164.02,80.92,77,20,13.67,few clouds,0.0,0.0
60,Pevek,RU,2020-02-22 06:41:46,69.7,170.31,-9.08,98,100,13.04,light snow,0.0,0.25
61,Gimli,CA,2020-02-22 06:41:46,50.63,-96.99,26.01,82,42,8.01,scattered clouds,0.0,0.0
62,Mar Del Plata,AR,2020-02-22 06:38:38,-38.0,-57.56,57.0,81,75,4.7,broken clouds,0.0,0.0
63,Araouane,ML,2020-02-22 06:41:47,18.9,-3.53,74.08,12,100,7.58,overcast clouds,0.0,0.0
64,Cabo San Lucas,MX,2020-02-22 06:41:47,22.89,-109.91,69.01,64,100,10.58,overcast clouds,0.0,0.0
65,Cayenne,GF,2020-02-22 06:37:48,4.93,-52.33,75.2,94,73,1.12,light rain,0.38,0.0
66,Andenes,NO,2020-02-22 06:41:47,69.31,16.12,37.4,85,100,23.04,light rain,0.0,0.0
67,Busselton,AU,2020-02-22 06:41:41,-33.65,115.33,80.01,40,100,9.24,overcast clouds,0.0,0.0
68,Vila Franca Do Campo,PT,2020-02-22 06:41:48,37.72,-25.43,50.0,81,20,5.82,few clouds,0.0,0.0
69,Bambous Virieux,MU,2020-02-22 06:41:48,-20.34,57.76,82.99,58,20,5.82,few clouds,0.0,0.0
70,Pali,IN,2020-02-22 06:41:48,25.77,73.33,75.99,34,0,9.66,clear sky,0.0,0.0
71,Port Elizabeth,ZA,2020-02-22 06:41:48,-33.92,25.57,69.8,73,20,19.46,few clouds,0.0,0.0
72,Elko,US,2020-02-22 06:41:49,41.0,-115.5,34.0,58,1,3.36,clear sky,0.0,0.0
73,Qaanaaq,GL,2020-02-22 06:41:49,77.48,-69.36,-19.12,55,90,4.76,overcast clouds,0.0,0.0
74,Shache,CN,2020-02-22 06:41:49,38.42,77.24,46.29,28,7,3.6,clear sky,0.0,0.0
75,Ilulissat,GL,2020-02-22 06:41:35,69.22,-51.1,-5.8,53,100,4.7,overcast clouds,0.0,0.0
76,Avarua,CK,2020-02-22 06:41:49,-21.21,-159.78,82.4,83,2,9.17,light rain,0.31,0.0
77,Sibolga,ID,2020-02-22 06:39:38,1.74,98.78,90.54,46,0,5.79,clear sky,0.0,0.0
78,Tuktoyaktuk,CA,2020-02-22 06:41:50,69.45,-133.04,5.0,84,90,5.82,overcast clouds,0.0,0.0
79,Fort-Shevchenko,KZ,2020-02-22 06:38:09,44.51,50.26,38.19,62,0,9.24,clear sky,0.0,0.0
80,Asau,RO,2020-02-22 06:41:50,46.43,26.4,37.0,76,75,2.24,broken clouds,0.0,0.0
81,Ostrovnoy,RU,2020-02-22 06:41:50,68.05,39.51,32.52,86,94,29.1,overcast clouds,0.0,0.0
82,Dikson,RU,2020-02-22 06:41:51,73.51,80.55,11.73,91,100,22.32,overcast clouds,0.0,0.0
83,Avera,US,2020-02-22 06:41:51,33.19,-82.53,33.8,65,1,4.34,clear sky,0.0,0.0
84,Provideniya,RU,2020-02-22 06:41:51,64.38,-173.3,-16.55,99,91,2.48,overcast clouds,0.0,0.0
85,Mount Isa,AU,2020-02-22 06:40:19,-20.73,139.5,96.8,23,100,8.05,overcast clouds,0.0,0.0
86,New Norfolk,AU,2020-02-22 06:41:51,-42.78,147.06,72.0,49,11,17.22,few clouds,0.0,0.0
87,Dalby,AU,2020-02-22 06:41:52,-27.18,151.27,77.0,61,81,24.16,light rain,0.81,0.0
88,Tawagan,PH,2020-02-22 06:41:52,7.84,123.48,92.48,40,2,2.73,clear sky,0.0,0.0
89,Belmonte,BR,2020-02-22 06:41:52,-15.86,-38.88,78.8,83,75,4.7,broken clouds,0.0,0.0
90,Xinan,CN,2020-02-22 06:41:52,26.72,119.86,56.34,81,15,20.42,few clouds,0.0,0.0
91,Cabatuan,PH,2020-02-22 06:41:52,10.88,122.49,79.56,75,62,19.15,light rain,1.06,0.0
92,Port Lincoln,AU,2020-02-22 06:39:54,-34.73,135.87,69.73,55,1,10.36,clear sky,0.0,0.0
93,Kpandae,GH,2020-02-22 06:41:53,8.47,-0.01,74.7,73,2,3.69,clear sky,0.0,0.0
94,Sai Buri,TH,2020-02-22 06:41:53,6.7,101.62,86.0,66,20,11.41,few clouds,0.0,0.0
95,Irara,BR,2020-02-22 06:41:53,-12.05,-38.77,73.47,92,58,2.19,broken clouds,0.0,0.0
96,Katangli,RU,2020-02-22 06:41:54,51.71,143.23,23.31,81,53,3.44,broken clouds,0.0,0.0
97,Vostok,RU,2020-02-22 06:41:54,46.49,135.88,30.13,97,100,3.42,light snow,0.0,0.75
98,Aklavik,CA,2020-02-22 06:41:54,68.22,-135.01,-0.4,77,75,3.36,light snow,0.0,0.0
99,Bethel,US,2020-02-22 06:41:54,41.37,-73.41,32.0,42,1,5.82,clear sky,0.0,0.0
100,Hambantota,LK,2020-02-22 06:41:55,6.12,81.12,82.4,100,75,10.29,broken clouds,0.0,0.0
101,Georgetown,MY,2020-02-22 06:41:55,5.41,100.34,93.2,46,20,13.87,few clouds,0.0,0.0
102,Ust-Maya,RU,2020-02-22 06:41:55,60.42,134.53,8.64,91,100,2.08,light snow,0.0,0.12
103,Ascension,US,2020-02-22 06:41:55,30.22,-90.9,45.0,75,1,4.7,clear sky,0.0,0.0
104,Lufilufi,WS,2020-02-22 06:41:55,-13.87,-171.6,80.6,94,90,21.92,light intensity drizzle,0.0,0.0
105,Sao Joao Da Barra,BR,2020-02-22 06:37:47,-21.64,-41.05,75.7,90,49,11.48,light rain,0.81,0.0
106,Tacuati,PY,2020-02-22 06:41:56,-23.45,-56.58,68.18,42,20,7.96,few clouds,0.0,0.0
107,Bredasdorp,ZA,2020-02-22 06:41:56,-34.53,20.04,71.6,60,13,9.17,few clouds,0.0,0.0
108,Hasaki,JP,2020-02-22 06:41:56,35.73,140.83,64.4,55,75,19.46,broken clouds,0.0,0.0
109,Adrar,MR,2020-02-22 06:41:57,20.5,-10.07,70.7,14,100,13.02,overcast clouds,0.0,0.0
110,Kaele,CM,2020-02-22 06:41:57,10.11,14.45,73.4,20,0,9.17,clear sky,0.0,0.0
111,Broken Hill,AU,2020-02-22 06:41:57,-31.95,141.43,84.2,18,0,18.34,clear sky,0.0,0.0
112,Nicoya,CR,2020-02-22 06:41:57,10.15,-85.45,80.6,57,70,20.8,broken clouds,0.0,0.0
113,Victoria,HK,2020-02-22 06:41:57,22.29,114.16,81.0,53,20,8.05,few clouds,0.0,0.0
114,Libreville,GA,2020-02-22 06:40:05,0.39,9.45,78.8,100,20,4.7,few clouds,0.0,0.0
115,Ponta Do Sol,PT,2020-02-22 06:41:58,32.67,-17.1,64.0,77,40,9.17,scattered clouds,0.0,0.0
116,Jumla,NP,2020-02-22 06:41:58,29.27,82.18,39.99,79,0,4.0,clear sky,0.0,0.0
117,Alofi,NU,2020-02-22 06:41:58,-19.06,-169.92,80.6,88,75,9.17,broken clouds,0.0,0.0
118,Cervo,ES,2020-02-22 06:41:58,43.67,-7.41,46.0,1,0,3.24,clear sky,0.0,0.0
119,Narsaq,GL,2020-02-22 06:41:59,60.92,-46.05,19.4,44,31,3.36,scattered clouds,0.0,0.0
120,Kutum,SD,2020-02-22 06:41:59,14.2,24.67,60.08,18,83,4.29,broken clouds,0.0,0.0
121,Platteville,US,2020-02-22 06:41:59,42.73,-90.48,32.0,73,1,10.29,clear sky,0.0,0.0
122,Upernavik,GL,2020-02-22 06:41:59,72.79,-56.15,-17.0,96,94,1.07,overcast clouds,0.0,0.0
123,Tasiilaq,GL,2020-02-22 06:42:00,65.61,-37.64,17.6,61,66,2.24,broken clouds,0.0,0.0
124,Kigorobya,UG,2020-02-22 06:42:00,1.62,31.31,80.83,46,99,2.01,overcast clouds,0.0,0.0
125,Cherskiy,RU,2020-02-22 06:42:00,68.75,161.3,-18.98,98,100,3.98,overcast clouds,0.0,0.0
126,San Cristobal,VE,2020-02-22 06:42:00,7.77,-72.22,78.8,78,40,2.24,haze,0.0,0.0
127,Port Alfred,ZA,2020-02-22 06:42:00,-33.59,26.89,69.01,88,96,5.99,light rain,0.19,0.0
128,Beyneu,KZ,2020-02-22 06:42:01,45.32,55.2,36.28,68,0,5.17,clear sky,0.0,0.0
129,Qasigiannguit,GL,2020-02-22 06:42:01,68.82,-51.19,-5.8,53,100,4.7,overcast clouds,0.0,0.0
130,Makakilo City,US,2020-02-22 06:41:57,21.35,-158.09,75.2,69,20,4.7,few clouds,0.0,0.0
131,Katsuura,JP,2020-02-22 06:42:02,35.13,140.3,64.0,55,40,25.28,scattered clouds,0.0,0.0
132,Solvychegodsk,RU,2020-02-22 06:42:02,61.33,46.92,33.37,88,98,10.78,overcast clouds,0.0,0.0
133,Iskateley,RU,2020-02-22 06:42:02,67.68,53.15,26.96,88,100,24.18,overcast clouds,0.0,0.0
134,Nchelenge,ZM,2020-02-22 06:42:02,-9.35,28.73,71.78,89,96,3.44,overcast clouds,0.0,0.0
135,Cotonou,BJ,2020-02-22 06:42:02,6.37,2.42,82.4,88,40,3.36,scattered clouds,0.0,0.0
136,Coihaique,CL,2020-02-22 06:42:03,-45.58,-72.07,43.02,47,0,2.15,clear sky,0.0,0.0
137,Seoul,KR,2020-02-22 06:41:30,37.57,126.98,46.4,52,75,3.36,broken clouds,0.0,0.0
138,Catarman,PH,2020-02-22 06:42:03,12.5,124.64,79.09,76,57,14.41,light rain,0.31,0.0
139,Aleksandrov Gay,RU,2020-02-22 06:42:03,50.15,48.57,28.51,85,100,9.69,overcast clouds,0.0,0.0
140,Rabo De Peixe,PT,2020-02-22 06:42:04,37.8,-25.58,50.0,81,20,5.82,few clouds,0.0,0.0
141,Cam Ranh,VN,2020-02-22 06:42:04,11.92,109.16,86.0,62,75,23.04,broken clouds,0.0,0.0
142,Dicabisagan,PH,2020-02-22 06:42:04,17.08,122.42,76.8,68,8,14.41,light rain,0.38,0.0
143,Acapulco,MX,2020-02-22 06:37:13,16.86,-99.89,77.0,94,5,3.36,clear sky,0.0,0.0
144,Buzuluk,RU,2020-02-22 06:42:04,52.78,52.26,27.81,95,91,1.61,overcast clouds,0.0,0.0
145,Labuhan,ID,2020-02-22 06:42:05,-6.88,112.21,86.67,73,12,9.55,light rain,1.06,0.0
146,Shubarshi,KZ,2020-02-22 06:41:06,48.59,57.19,21.99,84,100,8.84,overcast clouds,0.0,0.0
147,Russkaya Polyana,UA,2020-02-22 06:42:05,49.42,31.92,33.44,75,1,5.5,clear sky,0.0,0.0
148,Lekoni,GA,2020-02-22 06:42:05,-1.58,14.26,76.89,79,100,3.71,light rain,0.81,0.0
149,Severnoye,RU,2020-02-22 06:42:06,56.35,78.36,29.07,96,48,4.18,scattered clouds,0.0,0.0
150,Umtata,ZA,2020-02-22 06:42:06,-31.59,28.78,77.0,65,58,1.12,broken clouds,0.0,0.0
151,Clarence Town,AU,2020-02-22 06:42:06,-32.58,151.78,75.99,78,75,16.11,broken clouds,0.0,0.0
152,Vestmannaeyjar,IS,2020-02-22 06:42:06,63.44,-20.27,34.09,71,100,24.4,overcast clouds,0.0,0.0
153,Kruisfontein,ZA,2020-02-22 06:42:07,-34.0,24.73,67.57,71,1,8.14,clear sky,0.0,0.0
154,Lazaro Cardenas,MX,2020-02-22 06:42:07,17.96,-102.2,72.32,84,0,3.36,clear sky,0.0,0.0
155,Severo-Kurilsk,RU,2020-02-22 06:42:07,50.68,156.12,15.85,88,94,23.0,light snow,0.0,0.38
156,Saint-Philippe,RE,2020-02-22 06:42:07,-21.36,55.77,84.2,58,24,16.11,few clouds,0.0,0.0
157,Menongue,AO,2020-02-22 06:42:08,-14.66,17.69,65.71,89,98,3.31,light rain,0.13,0.0
158,Ayan,RU,2020-02-22 06:42:08,56.45,138.17,8.51,86,77,3.13,broken clouds,0.0,0.0
159,Arraial Do Cabo,BR,2020-02-22 06:42:08,-22.97,-42.03,76.55,90,98,10.58,light rain,1.44,0.0
160,Chadiza,ZM,2020-02-22 06:42:08,-14.07,32.44,73.04,82,82,3.76,broken clouds,0.0,0.0
161,Nyurba,RU,2020-02-22 06:42:08,63.28,118.33,-0.11,93,97,3.15,overcast clouds,0.0,0.0
162,Borogontsy,RU,2020-02-22 06:42:09,62.67,131.17,0.05,92,94,2.08,overcast clouds,0.0,0.0
163,Tekkali,IN,2020-02-22 06:42:09,18.62,84.23,86.36,27,0,7.11,clear sky,0.0,0.0
164,Warmbad,NA,2020-02-22 06:42:09,-28.45,18.73,71.76,35,45,6.22,scattered clouds,0.0,0.0
165,Talnakh,RU,2020-02-22 06:42:09,69.49,88.4,10.4,85,76,4.47,broken clouds,0.0,0.0
166,Dom Pedro,BR,2020-02-22 06:42:09,-4.48,-44.45,71.76,99,100,1.32,light rain,0.5,0.0
167,Vila Velha,BR,2020-02-22 06:42:10,-20.33,-40.29,73.4,94,75,4.7,broken clouds,0.0,0.0
168,Bilibino,RU,2020-02-22 06:42:10,68.05,166.44,-18.33,98,100,2.62,overcast clouds,0.0,0.0
169,Sarakhs,IR,2020-02-22 06:42:10,36.54,61.16,50.0,81,0,2.24,clear sky,0.0,0.0
170,Kavieng,PG,2020-02-22 06:42:11,-2.57,150.8,83.77,77,11,12.19,light rain,1.63,0.0
171,Tautira,PF,2020-02-22 06:42:11,-17.73,-149.15,82.4,74,20,3.36,few clouds,0.0,0.0
172,Sept-Iles,CA,2020-02-22 06:42:11,50.2,-66.38,21.2,79,90,5.82,light snow,0.0,0.0
173,Qaqortoq,GL,2020-02-22 06:42:11,60.72,-46.03,19.4,44,16,3.36,few clouds,0.0,0.0
174,Morondava,MG,2020-02-22 06:42:11,-20.28,44.28,81.16,79,100,7.38,overcast clouds,0.0,0.0
175,Mapiripan,CO,2020-02-22 06:42:12,2.89,-72.13,81.97,57,83,2.64,broken clouds,0.0,0.0
176,Charters Towers,AU,2020-02-22 06:42:12,-20.1,146.27,85.5,61,90,17.4,overcast clouds,0.0,0.0
177,Iqaluit,CA,2020-02-22 06:42:12,63.75,-68.51,-34.01,65,5,3.36,clear sky,0.0,0.0
178,Ossora,RU,2020-02-22 06:42:13,59.24,163.07,-8.03,68,26,1.52,scattered clouds,0.0,0.0
179,Souillac,MU,2020-02-22 06:42:13,-20.52,57.52,82.99,58,20,5.82,few clouds,0.0,0.0
180,Uttarkashi,IN,2020-02-22 06:42:13,30.73,78.45,61.43,28,0,3.58,clear sky,0.0,0.0
181,Lagoa,PT,2020-02-22 06:42:13,39.05,-27.98,60.1,78,52,8.16,broken clouds,0.0,0.0
182,Yarensk,RU,2020-02-22 06:42:13,62.17,49.09,32.22,91,98,12.37,overcast clouds,0.0,0.0
183,San Andres,CO,2020-02-22 06:42:14,12.58,-81.7,80.6,78,20,10.29,few clouds,0.0,0.0
184,Pringsewu,ID,2020-02-22 06:42:14,-5.36,104.97,87.44,59,8,7.25,clear sky,0.0,0.0
185,Nahavand,IR,2020-02-22 06:42:14,34.19,48.38,37.92,47,5,5.12,clear sky,0.0,0.0
186,Port Augusta,AU,2020-02-22 06:42:14,-32.5,137.77,88.0,39,0,12.75,clear sky,0.0,0.0
187,Puerto Quijarro,BO,2020-02-22 06:42:14,-17.78,-57.77,68.52,89,100,7.43,light rain,0.94,0.0
188,Ancud,CL,2020-02-22 06:42:15,-41.87,-73.82,51.8,66,0,5.82,clear sky,0.0,0.0
189,Honiara,SB,2020-02-22 06:38:19,-9.43,159.95,84.2,79,75,3.36,broken clouds,0.0,0.0
190,Shirokiy,RU,2020-02-22 06:42:15,49.76,129.52,10.89,85,83,9.82,broken clouds,0.0,0.0
191,Tezu,IN,2020-02-22 06:42:15,27.92,96.17,80.17,28,100,4.16,overcast clouds,0.0,0.0
192,Orsha,BY,2020-02-22 06:42:16,54.52,30.41,32.0,93,90,8.95,mist,0.0,0.0
193,Peterhead,GB,2020-02-22 06:42:16,57.51,-1.8,37.0,79,20,16.11,few clouds,0.0,0.0
194,Guerrero Negro,MX,2020-02-22 06:42:16,27.98,-114.06,65.91,54,100,8.39,overcast clouds,0.0,0.0
195,Weinan,CN,2020-02-22 06:42:16,34.5,109.51,55.4,20,0,8.95,clear sky,0.0,0.0
196,San Ramon,US,2020-02-22 06:42:02,37.78,-121.98,62.01,44,1,3.36,clear sky,0.0,0.0
197,Save,BJ,2020-02-22 06:42:17,8.04,2.49,72.75,94,0,2.46,clear sky,0.0,0.0
198,Isangel,VU,2020-02-22 06:42:17,-19.55,169.27,86.0,70,75,13.56,broken clouds,0.0,0.0
199,Bowen,AU,2020-02-22 06:42:17,-20.02,148.23,88.0,66,98,10.29,light rain,0.62,0.0
200,Oksfjord,NO,2020-02-22 06:42:18,70.24,22.35,35.6,69,40,9.17,scattered clouds,0.0,0.0
201,Saldanha,ZA,2020-02-22 06:42:18,-33.01,17.94,68.0,77,65,1.12,broken clouds,0.0,0.0
202,Paamiut,GL,2020-02-22 06:38:03,61.99,-49.67,11.53,79,99,4.63,light snow,0.0,0.31
203,Lamar,US,2020-02-22 06:42:18,33.67,-95.58,37.99,80,1,4.7,clear sky,0.0,0.0
204,Sur,OM,2020-02-22 06:42:19,22.57,59.53,77.92,54,19,4.25,few clouds,0.0,0.0
205,Bonthe,SL,2020-02-22 06:42:19,7.53,-12.51,78.13,92,95,4.94,overcast clouds,0.0,0.0
206,Cape Town,ZA,2020-02-22 06:40:02,-33.93,18.42,70.0,77,75,9.17,broken clouds,0.0,0.0
207,Nome,US,2020-02-22 06:42:20,64.5,-165.41,-16.6,75,1,4.7,clear sky,0.0,0.0
208,Sao Filipe,CV,2020-02-22 06:42:20,14.9,-24.5,67.42,83,73,20.11,broken clouds,0.0,0.0
209,Aviles,ES,2020-02-22 06:42:20,43.55,-5.92,48.99,93,75,5.82,fog,0.0,0.0
210,Rehoboth,NA,2020-02-22 06:42:20,-23.32,17.08,67.48,82,100,4.47,light rain,0.44,0.0
211,Kingisepp,RU,2020-02-22 06:42:20,59.37,28.61,37.29,81,99,15.64,overcast clouds,0.0,0.0
212,Waingapu,ID,2020-02-22 06:42:21,-9.66,120.26,82.98,75,99,10.4,overcast clouds,0.0,0.0
213,Clyde River,CA,2020-02-22 06:42:21,70.47,-68.59,-25.6,82,1,4.7,clear sky,0.0,0.0
214,Aykhal,RU,2020-02-22 06:42:21,66.0,111.5,3.2,84,100,2.24,overcast clouds,0.0,0.0
215,Thunder Bay,CA,2020-02-22 06:42:21,48.4,-89.32,26.01,73,5,6.93,clear sky,0.0,0.0
216,Todos Santos,MX,2020-02-22 06:42:21,23.45,-110.22,69.01,85,100,3.0,overcast clouds,0.0,0.0
217,Cherdyn,RU,2020-02-22 06:42:22,60.4,56.48,23.74,94,96,7.49,overcast clouds,0.0,0.0
218,Yellowknife,CA,2020-02-22 06:40:26,62.46,-114.35,0.0,84,5,10.29,clear sky,0.0,0.0
219,Upata,VE,2020-02-22 06:42:22,8.01,-62.4,69.1,84,84,3.4,broken clouds,0.0,0.0
220,Kananga,CD,2020-02-22 06:42:22,-5.9,22.42,74.23,90,68,1.25,light rain,0.19,0.0
221,Kurchum,KZ,2020-02-22 06:42:22,48.57,83.65,28.44,76,100,9.17,overcast clouds,0.0,0.0
222,Castro,BR,2020-02-22 06:42:23,-24.79,-50.01,62.82,99,95,4.52,light rain,0.19,0.0
223,Manbij,SY,2020-02-22 06:42:23,36.53,37.95,44.6,100,90,3.36,light rain,0.0,0.0
224,Richards Bay,ZA,2020-02-22 06:42:23,-28.78,32.04,78.91,81,0,17.11,clear sky,0.0,0.0
225,Saint George,US,2020-02-22 06:42:24,37.1,-113.58,53.6,27,1,10.29,clear sky,0.0,0.0
226,Yumen,CN,2020-02-22 06:42:24,40.28,97.2,46.72,17,95,17.38,overcast clouds,0.0,0.0
227,Mount Gambier,AU,2020-02-22 06:42:24,-37.83,140.77,69.8,56,4,18.34,clear sky,0.0,0.0
228,Buraydah,SA,2020-02-22 06:41:49,26.33,43.98,60.8,55,0,9.17,clear sky,0.0,0.0
229,Lorengau,PG,2020-02-22 06:42:24,-2.02,147.27,84.11,75,37,11.27,light rain,0.19,0.0
230,Mehamn,NO,2020-02-22 06:42:25,71.04,27.85,29.01,81,100,24.38,overcast clouds,0.0,0.0
231,Acajutla,SV,2020-02-22 06:42:25,13.59,-89.83,83.32,64,43,11.59,scattered clouds,0.0,0.0
232,Bone,DE,2020-02-22 06:42:25,51.97,12.14,42.01,78,20,13.87,few clouds,0.0,0.0
233,Tarut,SA,2020-02-22 06:42:25,26.57,50.04,69.8,52,0,3.62,clear sky,0.0,0.0
234,Seydi,TM,2020-02-22 06:42:25,39.48,62.91,48.33,64,0,1.05,clear sky,0.0,0.0
235,Vavozh,RU,2020-02-22 06:42:26,56.78,51.93,32.97,98,97,6.2,light snow,0.0,0.25
236,Guayaramerin,BO,2020-02-22 06:42:26,-10.84,-65.36,72.88,99,100,3.06,moderate rain,3.88,0.0
237,Lavrentiya,RU,2020-02-22 06:42:26,65.58,-171.0,-13.67,88,94,1.72,overcast clouds,0.0,0.0
238,Beidao,CN,2020-02-22 06:42:27,34.57,105.89,52.97,36,0,6.04,clear sky,0.0,0.0
239,Erie,US,2020-02-22 06:42:27,42.77,-78.67,32.0,63,1,28.86,clear sky,0.0,0.0
240,Djambala,CG,2020-02-22 06:42:27,-2.54,14.75,74.82,80,100,1.74,overcast clouds,0.0,0.0
241,Rodrigues Alves,BR,2020-02-22 06:42:27,-7.74,-72.65,74.26,95,100,2.53,light rain,0.37,0.0
242,Dingle,PH,2020-02-22 06:42:28,11.0,122.67,79.56,75,62,19.15,light rain,1.06,0.0
243,Thompson,CA,2020-02-22 06:39:20,55.74,-97.86,23.0,79,20,3.36,few clouds,0.0,0.0
244,Bengkulu,ID,2020-02-22 06:42:28,-3.8,102.27,89.87,53,6,4.16,clear sky,0.0,0.0
245,Sinnamary,GF,2020-02-22 06:42:28,5.38,-52.95,79.07,87,62,13.56,light rain,0.5,0.0
246,Saskylakh,RU,2020-02-22 06:42:29,71.92,114.08,-9.89,96,99,8.39,overcast clouds,0.0,0.0
247,Port Pirie,AU,2020-02-22 06:42:29,-33.18,138.02,80.6,39,0,12.75,clear sky,0.0,0.0
248,Codrington,AU,2020-02-22 06:42:29,-38.27,141.97,60.15,72,56,13.8,broken clouds,0.0,0.0
249,Tall Kayf,TR,2020-02-22 06:42:29,37.08,41.07,53.6,81,75,11.41,mist,0.0,0.0
250,Constitucion,CL,2020-02-22 06:42:29,-35.33,-72.42,51.46,92,0,4.45,clear sky,0.0,0.0
251,Altamira,BR,2020-02-22 06:42:30,-3.2,-52.21,72.84,92,90,1.95,overcast clouds,0.0,0.0
252,Bulgan,MN,2020-02-22 06:42:30,48.81,103.53,24.46,62,26,4.14,scattered clouds,0.0,0.0
253,Pangnirtung,CA,2020-02-22 06:42:30,66.15,-65.71,-34.2,97,72,0.69,broken clouds,0.0,0.0
254,Marshall,US,2020-02-22 06:42:30,34.38,-86.33,30.99,68,1,4.7,clear sky,0.0,0.0
255,Maceio,BR,2020-02-22 06:41:00,-9.67,-35.74,77.0,94,75,3.36,broken clouds,0.0,0.0
256,Husavik,IS,2020-02-22 06:42:31,66.04,-17.34,27.93,92,100,15.59,snow,0.0,1.87
257,Warrington,GB,2020-02-22 06:42:31,53.39,-2.58,52.0,76,75,27.51,light rain,0.0,0.0
258,Norman Wells,CA,2020-02-22 06:42:31,65.28,-126.83,5.0,84,75,2.24,light snow,0.0,0.0
259,Saquena,PE,2020-02-22 06:42:32,-4.67,-73.52,75.87,86,65,2.84,broken clouds,0.0,0.0
260,Tromso,NO,2020-02-22 06:42:32,69.65,18.96,39.2,55,75,58.61,broken clouds,0.0,0.0
261,Netarhat,IN,2020-02-22 06:42:32,23.48,84.27,83.59,27,0,6.64,clear sky,0.0,0.0
262,North Myrtle Beach,US,2020-02-22 06:42:32,33.82,-78.68,30.2,86,1,4.7,clear sky,0.0,0.0
263,Hualmay,PE,2020-02-22 06:42:32,-11.1,-77.61,72.64,71,100,2.1,overcast clouds,0.0,0.0
264,Fairbanks,US,2020-02-22 06:40:03,64.84,-147.72,14.0,78,75,1.1,broken clouds,0.0,0.0
265,San Angelo,US,2020-02-22 06:42:33,31.46,-100.44,43.0,80,1,3.36,clear sky,0.0,0.0
266,Santa Helena,BR,2020-02-22 06:42:33,-2.23,-45.3,72.97,99,100,1.7,moderate rain,3.13,0.0
267,Esperance,AU,2020-02-22 06:42:33,-33.87,121.9,86.0,30,40,6.93,scattered clouds,0.0,0.0
268,Arona,ES,2020-02-22 06:42:34,28.1,-16.68,59.0,58,0,1.12,clear sky,0.0,0.0
269,Pak Phanang,TH,2020-02-22 06:42:34,8.35,100.2,86.0,74,40,12.75,light rain,0.0,0.0
270,Sao Jose De Ribamar,BR,2020-02-22 06:42:34,-2.56,-44.05,75.2,100,90,4.7,fog,0.0,0.0
271,Chupa,RU,2020-02-22 06:42:34,66.27,33.05,32.83,90,95,16.42,overcast clouds,0.0,0.0
272,Waddan,LY,2020-02-22 06:42:34,29.16,16.14,48.83,75,0,6.85,clear sky,0.0,0.0
273,Bar Harbor,US,2020-02-22 06:42:35,44.39,-68.2,33.01,58,1,6.93,clear sky,0.0,0.0
274,Fairlie,GB,2020-02-22 06:42:35,55.76,-4.86,42.8,75,87,27.51,moderate rain,0.0,0.0
275,Torrington,US,2020-02-22 06:42:35,41.8,-73.12,30.99,38,1,8.05,clear sky,0.0,0.0
276,Belaya Gora,RU,2020-02-22 06:42:36,68.53,146.42,-13.14,92,90,1.72,overcast clouds,0.0,0.0
277,Ketchikan,US,2020-02-22 06:42:36,55.34,-131.65,35.6,91,90,5.82,overcast clouds,0.0,0.0
278,Basco,PH,2020-02-22 06:42:36,20.45,121.97,74.05,72,7,20.27,clear sky,0.0,0.0
279,Urusha,RU,2020-02-22 06:42:36,54.05,122.9,11.39,83,84,3.2,broken clouds,0.0,0.0
280,Caidian,CN,2020-02-22 06:42:37,30.58,114.03,60.8,59,0,6.71,haze,0.0,0.0
281,Nemuro,JP,2020-02-22 06:42:37,43.32,145.57,33.8,74,75,6.93,broken clouds,0.0,0.0
282,Sunbury,AU,2020-02-22 06:40:13,-37.58,144.73,73.99,52,20,12.75,few clouds,0.0,0.0
283,Vydrino,RU,2020-02-22 06:42:37,51.48,104.85,22.53,89,100,5.06,overcast clouds,0.0,0.0
284,Bathsheba,BB,2020-02-22 06:42:38,13.22,-59.52,77.0,73,20,10.29,few clouds,0.0,0.0
285,Florianopolis,BR,2020-02-22 06:42:38,-27.61,-48.5,69.01,68,100,11.41,overcast clouds,0.0,0.0
286,Bajil,YE,2020-02-22 06:42:38,15.06,43.29,72.63,80,59,3.8,broken clouds,0.0,0.0
287,Troitsko-Pechorsk,RU,2020-02-22 06:42:39,62.71,56.2,22.53,92,100,8.9,overcast clouds,0.0,0.0
288,Dunedin,NZ,2020-02-22 06:38:48,-45.87,170.5,55.99,68,91,1.01,overcast clouds,0.0,0.0
289,Barreiras,BR,2020-02-22 06:42:39,-12.15,-44.99,68.38,86,87,2.3,overcast clouds,0.0,0.0
290,Sola,VU,2020-02-22 06:42:40,-13.88,167.55,84.2,74,75,5.82,broken clouds,0.0,0.0
291,Margate,GB,2020-02-22 06:42:40,51.38,1.39,51.01,81,75,21.92,light rain,0.0,0.0
292,Eirunepe,BR,2020-02-22 06:42:40,-6.66,-69.87,74.5,97,100,2.55,light rain,0.25,0.0
293,Taltal,CL,2020-02-22 06:42:40,-25.4,-70.48,58.84,89,48,3.44,scattered clouds,0.0,0.0
294,Port Blair,IN,2020-02-22 06:42:41,11.67,92.75,81.73,74,0,15.88,clear sky,0.0,0.0
295,Kodiak,US,2020-02-22 06:42:41,57.79,-152.41,19.4,48,20,38.21,few clouds,0.0,0.0
296,Sao Felix Do Xingu,BR,2020-02-22 06:42:41,-6.64,-51.99,70.7,99,100,1.12,overcast clouds,0.0,0.0
297,Bonnyville,CA,2020-02-22 06:42:41,54.27,-110.73,30.2,58,40,6.93,scattered clouds,0.0,0.0
298,Nan,TH,2020-02-22 06:42:41,18.83,100.67,86.0,40,20,3.36,few clouds,0.0,0.0
299,Saint-Augustin,CA,2020-02-22 06:42:42,51.23,-58.65,5.74,96,40,9.64,scattered clouds,0.0,0.0
300,Najran,SA,2020-02-22 06:42:42,17.49,44.13,68.0,40,50,4.7,scattered clouds,0.0,0.0
301,San Francisco,US,2020-02-22 06:40:40,37.77,-122.42,62.6,44,75,5.82,broken clouds,0.0,0.0
302,Boulder City,US,2020-02-22 06:42:42,35.98,-114.83,57.2,32,1,2.37,clear sky,0.0,0.0
303,Melbu,NO,2020-02-22 06:42:42,68.5,14.83,37.0,87,91,21.0,light snow,0.0,0.69
304,Tuatapere,NZ,2020-02-22 06:42:43,-46.13,167.68,54.0,63,24,10.0,few clouds,0.0,0.0
305,Bilma,NE,2020-02-22 06:42:43,18.69,12.92,58.35,29,73,11.54,broken clouds,0.0,0.0
306,Tateyama,JP,2020-02-22 06:42:43,34.98,139.87,64.0,55,40,25.28,scattered clouds,0.0,0.0
307,Lompoc,US,2020-02-22 06:42:43,34.64,-120.46,57.99,82,90,3.36,overcast clouds,0.0,0.0
308,Wattegama,LK,2020-02-22 06:42:44,6.8,81.48,82.4,100,75,10.29,broken clouds,0.0,0.0
309,Salalah,OM,2020-02-22 06:42:44,17.02,54.09,78.8,65,40,6.93,scattered clouds,0.0,0.0
310,Waipawa,NZ,2020-02-22 06:42:44,-41.41,175.52,66.0,82,100,10.29,overcast clouds,0.0,0.0
311,Teya,RU,2020-02-22 06:42:44,60.38,92.63,22.17,89,92,2.71,light snow,0.0,0.13
312,Kieta,PG,2020-02-22 06:42:44,-6.22,155.63,84.56,69,23,3.89,light rain,2.13,0.0
313,Laguna,US,2020-02-22 06:42:45,38.42,-121.42,61.0,47,1,5.82,clear sky,0.0,0.0
314,Puerto El Triunfo,SV,2020-02-22 06:42:45,13.28,-88.55,82.4,61,46,2.24,scattered clouds,0.0,0.0
315,Klaksvik,FO,2020-02-22 06:42:45,62.23,-6.59,33.8,68,76,36.91,moderate rain,0.0,0.0
316,Alyangula,AU,2020-02-22 06:42:45,-13.85,136.42,82.4,83,90,9.17,light intensity shower rain,0.0,0.0
317,Lobva,RU,2020-02-22 06:42:46,59.19,60.52,25.43,86,8,4.5,clear sky,0.0,0.0
318,Vorsma,RU,2020-02-22 06:42:46,55.99,43.27,39.0,86,100,11.18,overcast clouds,0.0,0.0
319,Carnarvon,AU,2020-02-22 06:42:46,-24.87,113.63,84.2,62,40,13.87,scattered clouds,0.0,0.0
320,Kudahuvadhoo,MV,2020-02-22 06:42:46,2.67,72.89,82.2,79,100,9.73,moderate rain,5.56,0.0
321,San Antonio,US,2020-02-22 06:42:25,29.42,-98.49,46.4,61,1,3.36,clear sky,0.0,0.0
322,Dorna,RO,2020-02-22 06:42:47,47.35,25.43,30.0,86,90,2.73,overcast clouds,0.0,0.0
323,Marawi,PH,2020-02-22 06:42:47,8.0,124.29,82.0,76,21,10.0,few clouds,0.0,0.0
324,Birin,NP,2020-02-22 06:42:47,26.89,88.07,59.9,54,83,6.33,light rain,0.25,0.0
325,Inuvik,CA,2020-02-22 06:42:47,68.35,-133.72,-0.4,77,75,3.36,light snow,0.0,0.0
326,Santa Cruz De La Palma,ES,2020-02-22 06:42:48,28.68,-17.76,60.8,72,90,6.93,overcast clouds,0.0,0.0
327,Yongchang,CN,2020-02-22 06:42:48,30.04,119.73,66.99,29,0,0.85,clear sky,0.0,0.0
328,Koslan,RU,2020-02-22 06:42:48,63.46,48.9,29.61,90,94,14.45,overcast clouds,0.0,0.0
329,Belyy Yar,RU,2020-02-22 06:42:48,53.6,91.39,33.8,59,100,2.24,overcast clouds,0.0,0.0
330,Denison,US,2020-02-22 06:42:48,33.76,-96.54,41.0,55,1,3.36,clear sky,0.0,0.0
331,Udachnyy,RU,2020-02-22 06:42:49,66.42,112.4,3.2,84,100,2.24,overcast clouds,0.0,0.0
332,La Ronge,CA,2020-02-22 06:42:49,55.1,-105.28,32.0,82,20,8.05,few clouds,0.0,0.0
333,Bako,ET,2020-02-22 06:42:49,5.78,36.57,78.55,56,88,1.01,overcast clouds,0.0,0.0
334,Kahului,US,2020-02-22 06:39:02,20.89,-156.47,73.4,64,1,13.87,clear sky,0.0,0.0
335,Ingham,US,2020-02-22 06:42:50,42.6,-84.38,28.0,63,1,11.41,clear sky,0.0,0.0
336,Raudeberg,NO,2020-02-22 06:42:50,61.99,5.14,41.0,80,95,21.92,light rain,0.31,0.0
337,Sorland,NO,2020-02-22 06:42:50,67.67,12.69,41.32,69,99,42.05,light snow,0.0,0.63
338,Yurgamysh,RU,2020-02-22 06:42:50,55.37,64.47,29.88,92,95,5.23,overcast clouds,0.0,0.0
339,Turukhansk,RU,2020-02-22 06:42:51,65.82,87.98,19.38,95,96,5.46,light snow,0.0,0.19
340,Wagar,SD,2020-02-22 06:42:51,16.15,36.2,67.51,56,0,8.66,clear sky,0.0,0.0
341,Goderich,CA,2020-02-22 06:42:51,43.75,-81.72,30.99,66,0,1.99,clear sky,0.0,0.0
342,Kolokani,ML,2020-02-22 06:42:52,13.57,-8.03,72.7,14,68,11.21,broken clouds,0.0,0.0
343,Quatre Cocos,MU,2020-02-22 06:42:52,-20.21,57.76,82.99,58,20,5.82,few clouds,0.0,0.0
344,Bardiyah,LY,2020-02-22 06:42:52,31.76,25.09,57.15,64,26,11.25,scattered clouds,0.0,0.0
345,Ginda,IN,2020-02-22 06:42:52,30.69,78.49,61.43,28,0,3.58,clear sky,0.0,0.0
346,Kenai,US,2020-02-22 06:42:52,60.55,-151.26,21.99,79,90,9.17,overcast clouds,0.0,0.0
347,Tabuk,PH,2020-02-22 06:42:53,17.42,121.44,79.68,57,29,5.61,light rain,0.13,0.0
348,Sandakan,MY,2020-02-22 06:42:53,5.84,118.12,86.0,70,40,16.11,scattered clouds,0.0,0.0
349,Olafsvik,IS,2020-02-22 06:42:53,64.89,-23.71,31.28,76,94,25.77,overcast clouds,0.0,0.0
350,Pingxiang,CN,2020-02-22 06:42:53,27.62,113.85,60.1,70,85,0.58,overcast clouds,0.0,0.0
351,Vardo,NO,2020-02-22 06:42:53,70.37,31.11,33.15,84,97,33.46,overcast clouds,0.0,0.0
352,Kirakira,SB,2020-02-22 06:42:54,-10.45,161.92,82.78,79,58,6.17,light rain,2.12,0.0
353,Dhidhdhoo,MV,2020-02-22 06:42:54,6.88,73.1,83.01,78,97,17.07,overcast clouds,0.0,0.0
354,Marzuq,YE,2020-02-22 06:42:54,14.4,46.47,79.0,20,34,2.1,scattered clouds,0.0,0.0
355,Holland,US,2020-02-22 06:38:35,42.79,-86.11,34.0,58,1,24.16,clear sky,0.0,0.0
356,Tazovskiy,RU,2020-02-22 06:42:55,67.47,78.7,2.34,91,29,8.1,scattered clouds,0.0,0.0
357,Hearst,CA,2020-02-22 06:40:40,49.68,-83.67,22.37,92,99,7.05,overcast clouds,0.0,0.0
358,Pinheiro,BR,2020-02-22 06:42:55,-2.52,-45.08,72.57,99,100,2.37,moderate rain,9.94,0.0
359,Fethiye,TR,2020-02-22 06:42:56,36.62,29.12,50.0,71,40,6.93,scattered clouds,0.0,0.0
360,Saint Anthony,US,2020-02-22 06:42:56,45.02,-93.22,25.0,92,1,4.7,mist,0.0,0.0
361,Pacific Grove,US,2020-02-22 06:42:56,36.62,-121.92,59.0,71,40,5.82,scattered clouds,0.0,0.0
362,San Rafael,AR,2020-02-22 06:42:57,-34.62,-68.33,58.44,37,22,1.95,few clouds,0.0,0.0
363,Syamzha,RU,2020-02-22 06:42:57,60.02,41.06,32.49,86,87,13.89,overcast clouds,0.0,0.0
364,Benguela,AO,2020-02-22 06:42:57,-12.58,13.41,78.8,83,75,0.69,broken clouds,0.0,0.0
365,San Carlos De Bariloche,AR,2020-02-22 06:42:57,-41.15,-71.31,46.4,49,0,6.93,clear sky,0.0,0.0
366,Sosnovka,RU,2020-02-22 06:42:57,56.26,51.28,33.01,98,100,6.82,light snow,0.0,0.19
367,Quba,AZ,2020-02-22 06:41:37,41.36,48.52,37.85,86,100,4.07,overcast clouds,0.0,0.0
368,Dungarpur,IN,2020-02-22 06:42:58,23.83,73.72,78.87,17,0,14.12,clear sky,0.0,0.0
369,Wuchi,CN,2020-02-22 06:42:58,29.38,103.02,43.07,80,92,4.29,overcast clouds,0.0,0.0
370,Atar,MR,2020-02-22 06:42:58,20.52,-13.05,66.43,15,52,4.52,broken clouds,0.0,0.0
371,Bitam,GA,2020-02-22 06:42:58,2.08,11.5,70.39,97,98,0.78,light rain,0.56,0.0
372,Campoverde,PE,2020-02-22 06:42:59,-8.48,-74.81,78.8,88,75,12.75,thunderstorm with rain,0.0,0.0
373,Luderitz,NA,2020-02-22 06:42:59,-26.65,15.16,68.0,72,14,23.04,few clouds,0.0,0.0
374,Son La,VN,2020-02-22 06:42:59,21.32,103.9,76.33,44,13,4.32,few clouds,0.0,0.0
375,Gat,IL,2020-02-22 06:42:59,31.61,34.76,53.6,87,40,12.75,scattered clouds,0.0,0.0
376,Amparafaravola,MG,2020-02-22 06:42:59,-17.58,48.22,69.94,87,100,3.11,light rain,0.31,0.0
377,Prainha,BR,2020-02-22 06:43:00,-1.8,-53.48,73.36,97,96,1.88,overcast clouds,0.0,0.0
378,Aktash,RU,2020-02-22 06:43:00,50.3,87.73,28.0,92,100,1.79,overcast clouds,0.0,0.0
379,Vicuna,CL,2020-02-22 06:43:00,-30.03,-70.71,60.8,87,90,2.24,overcast clouds,0.0,0.0
380,Hays,US,2020-02-22 06:43:00,30.05,-98.03,45.0,75,90,4.36,overcast clouds,0.0,0.0
381,Aromashevo,RU,2020-02-22 06:43:01,56.86,68.64,30.18,94,96,6.46,light snow,0.0,0.12
382,Uray,RU,2020-02-22 06:43:01,60.12,64.78,14.09,92,4,3.04,clear sky,0.0,0.0
383,Terra Santa,BR,2020-02-22 06:43:01,-2.1,-56.49,74.23,98,100,2.13,overcast clouds,0.0,0.0
384,Camacha,PT,2020-02-22 06:43:01,33.08,-16.33,62.6,82,40,17.22,scattered clouds,0.0,0.0
385,Kaihua,CN,2020-02-22 06:40:39,23.37,104.28,58.39,71,94,9.26,overcast clouds,0.0,0.0
386,Havelock,US,2020-02-22 06:38:04,34.88,-76.9,32.0,85,1,11.41,clear sky,0.0,0.0
387,Graaff-Reinet,ZA,2020-02-22 06:39:32,-32.25,24.53,70.0,82,88,1.01,overcast clouds,0.0,0.0
388,Santa Vitoria Do Palmar,BR,2020-02-22 06:43:02,-33.52,-53.37,59.47,66,41,11.72,scattered clouds,0.0,0.0
389,Flinders,AU,2020-02-22 06:43:03,-34.58,150.86,72.0,68,90,11.41,overcast clouds,0.0,0.0
390,San Lawrenz,MT,2020-02-22 06:43:03,36.06,14.2,55.0,87,40,8.05,scattered clouds,0.0,0.0
391,Umaria,IN,2020-02-22 06:43:03,23.53,80.83,84.99,34,21,8.86,few clouds,0.0,0.0
392,Nsanje,MW,2020-02-22 06:43:03,-16.92,35.26,80.15,84,97,0.25,overcast clouds,0.0,0.0
393,Leningradskiy,RU,2020-02-22 06:43:04,69.38,178.42,-9.13,93,100,16.82,light snow,0.0,0.19
394,Itoman,JP,2020-02-22 06:43:04,26.12,127.67,73.4,64,75,6.93,broken clouds,0.0,0.0
395,Sambava,MG,2020-02-22 06:43:05,-14.27,50.17,80.06,77,97,2.13,overcast clouds,0.0,0.0
396,Adzope,CI,2020-02-22 06:43:06,6.11,-3.86,75.67,98,73,2.48,broken clouds,0.0,0.0
397,Port Hedland,AU,2020-02-22 06:43:06,-20.32,118.57,93.2,56,0,16.11,clear sky,0.0,0.0
398,Burley,US,2020-02-22 06:40:25,42.54,-113.79,26.6,73,1,4.7,clear sky,0.0,0.0
399,Sabha,LY,2020-02-22 06:43:06,27.04,14.43,49.3,59,0,8.41,clear sky,0.0,0.0
400,Picos,BR,2020-02-22 06:43:06,-7.08,-41.47,69.98,96,100,2.26,light rain,2.5,0.0
401,Shimoda,JP,2020-02-22 06:43:07,34.67,138.95,66.2,59,75,26.4,broken clouds,0.0,0.0
402,Honningsvag,NO,2020-02-22 06:43:07,70.98,25.97,37.24,74,99,35.32,overcast clouds,0.0,0.0
403,Brandon,US,2020-02-22 06:43:07,27.94,-82.29,46.99,75,1,10.29,clear sky,0.0,0.0
404,Linxia,CN,2020-02-22 06:43:07,35.6,103.21,40.68,26,0,6.2,clear sky,0.0,0.0
405,Miyako,JP,2020-02-22 06:43:08,39.64,141.95,48.58,86,94,11.95,light rain,0.19,0.0
406,Zlobin,HR,2020-02-22 06:43:08,45.29,14.65,46.4,33,34,4.7,scattered clouds,0.0,0.0
407,Morar,IN,2020-02-22 06:43:08,26.23,78.23,74.23,41,0,4.25,clear sky,0.0,0.0
408,Bud,US,2020-02-22 06:43:08,39.45,-86.18,28.0,53,1,8.05,clear sky,0.0,0.0
409,Nampula,MZ,2020-02-22 06:43:08,-15.12,39.27,78.8,78,75,3.36,broken clouds,0.0,0.0
410,Portland,US,2020-02-22 06:43:09,45.52,-122.68,45.0,70,1,6.93,clear sky,0.0,0.0
411,Gizo,SB,2020-02-22 06:43:09,-8.1,156.84,81.16,79,43,5.99,light rain,2.56,0.0
412,Cesvaine,LV,2020-02-22 06:43:09,56.97,26.32,37.53,83,100,13.29,overcast clouds,0.0,0.0
413,Jaisalmer,IN,2020-02-22 06:43:09,26.91,70.92,76.19,35,0,12.75,clear sky,0.0,0.0
414,Duluth,US,2020-02-22 06:40:57,46.78,-92.11,26.6,79,90,9.17,overcast clouds,0.0,0.0
415,Petrolina De Goias,BR,2020-02-22 06:43:10,-16.09,-49.34,71.6,94,75,8.05,light rain,0.0,0.0
416,Hamilton,US,2020-02-22 06:43:10,39.18,-84.53,28.99,49,1,3.36,clear sky,0.0,0.0
417,Donskoye,RU,2020-02-22 06:43:10,45.46,41.97,33.8,78,90,15.66,overcast clouds,0.0,0.0
418,Elizabeth City,US,2020-02-22 06:43:10,36.29,-76.25,33.8,100,1,7.0,clear sky,0.0,0.0
419,Lagos,NG,2020-02-22 06:41:14,6.58,3.75,82.4,94,20,8.05,haze,0.0,0.0
420,Iquique,CL,2020-02-22 06:43:11,-20.22,-70.14,73.4,64,98,6.93,overcast clouds,0.0,0.0
421,Rorvik,NO,2020-02-22 06:43:11,64.86,11.24,40.33,77,97,35.46,light rain,1.37,0.0
422,Tibati,CM,2020-02-22 06:43:11,6.47,12.63,66.94,32,8,4.21,clear sky,0.0,0.0
423,Abu Samrah,SY,2020-02-22 06:43:11,35.3,37.18,50.27,71,26,5.06,scattered clouds,0.0,0.0
424,Katobu,ID,2020-02-22 06:43:11,-4.94,122.53,77.22,94,89,6.44,light rain,3.0,0.0
425,Los Llanos De Aridane,ES,2020-02-22 06:43:12,28.66,-17.92,60.8,72,90,6.93,overcast clouds,0.0,0.0
426,Vilyuysk,RU,2020-02-22 06:43:12,63.76,121.62,0.73,94,90,3.33,overcast clouds,0.0,0.0
427,Zyryanka,RU,2020-02-22 06:43:12,65.75,150.85,-14.24,87,38,5.64,scattered clouds,0.0,0.0
428,Skjervoy,NO,2020-02-22 06:43:13,70.03,20.97,39.04,62,97,23.31,overcast clouds,0.0,0.0
429,Ismailia,EG,2020-02-22 06:39:11,30.6,32.27,51.8,81,75,6.93,broken clouds,0.0,0.0
430,Plaster Rock,CA,2020-02-22 06:43:06,46.91,-67.39,12.99,51,1,5.82,clear sky,0.0,0.0
431,Nago,JP,2020-02-22 06:43:13,26.59,127.98,73.4,43,90,11.41,overcast clouds,0.0,0.0
432,Palmer,US,2020-02-22 06:43:13,42.16,-72.33,27.0,49,1,6.93,clear sky,0.0,0.0
433,Faro,PT,2020-02-22 06:43:14,37.02,-7.93,55.99,81,0,4.7,clear sky,0.0,0.0
434,Touros,BR,2020-02-22 06:43:14,-5.2,-35.46,77.0,94,40,2.24,shower rain,0.0,0.0
435,Flin Flon,CA,2020-02-22 06:43:14,54.77,-101.86,27.48,89,80,8.77,broken clouds,0.0,0.0
436,Henties Bay,NA,2020-02-22 06:43:14,-22.12,14.28,64.0,91,75,3.0,broken clouds,0.0,0.0
437,Mpongwe,ZM,2020-02-22 06:43:15,-13.51,28.16,69.58,90,49,3.24,scattered clouds,0.0,0.0
438,Chumikan,RU,2020-02-22 06:43:15,54.72,135.31,16.11,73,3,6.49,clear sky,0.0,0.0
439,Poros,GR,2020-02-22 06:43:15,37.5,23.45,48.99,61,75,6.93,broken clouds,0.0,0.0
440,Mokhsogollokh,RU,2020-02-22 06:43:15,61.47,128.92,5.43,94,100,2.1,overcast clouds,0.0,0.0
441,Cartagena,CO,2020-02-22 06:41:24,10.4,-75.51,78.8,83,40,12.75,scattered clouds,0.0,0.0
442,Yar-Sale,RU,2020-02-22 06:43:16,66.83,70.83,8.8,79,58,16.96,broken clouds,0.0,0.0
443,Anahuac,MX,2020-02-22 06:43:16,27.23,-100.15,50.65,47,79,14.38,broken clouds,0.0,0.0
444,Cabedelo,BR,2020-02-22 06:43:16,-6.98,-34.83,78.8,94,40,2.24,scattered clouds,0.0,0.0
445,Geraldton,AU,2020-02-22 06:43:16,-28.77,114.6,82.4,61,75,24.16,broken clouds,0.0,0.0
446,Ludvika,SE,2020-02-22 06:43:16,60.15,15.19,44.01,87,100,21.92,light rain,0.0,0.0
447,Chuy,UY,2020-02-22 06:43:17,-33.7,-53.46,59.47,66,41,11.72,scattered clouds,0.0,0.0
448,Krasnaya Gorka,RU,2020-02-22 06:43:17,55.2,56.67,30.2,97,100,3.91,light snow,0.0,0.13
449,Grindavik,IS,2020-02-22 06:43:17,63.84,-22.43,30.2,86,40,18.34,scattered clouds,0.0,0.0
450,Egvekinot,RU,2020-02-22 06:43:17,66.32,-179.17,-23.49,100,99,0.54,overcast clouds,0.0,0.0
451,Aras,ES,2020-02-22 06:43:18,42.56,-2.36,33.01,60,90,2.24,fog,0.0,0.0
452,Jiuquan,CN,2020-02-22 06:43:18,39.74,98.52,40.15,20,0,3.76,clear sky,0.0,0.0
453,Jalu,LY,2020-02-22 06:43:18,29.03,21.55,50.07,68,0,7.14,clear sky,0.0,0.0
454,Nazareno,MX,2020-02-22 06:43:18,25.38,-103.42,51.01,60,54,1.01,broken clouds,0.0,0.0
455,Winneba,GH,2020-02-22 06:43:19,5.35,-0.62,82.4,94,20,9.17,few clouds,0.0,0.0
456,Lehi,US,2020-02-22 06:40:32,40.39,-111.85,36.0,80,75,5.82,broken clouds,0.0,0.0
457,Katsina,NG,2020-02-22 06:43:19,12.99,7.6,65.44,18,0,13.47,clear sky,0.0,0.0
458,Ahipara,NZ,2020-02-22 06:43:19,-35.17,173.17,72.0,100,100,14.63,overcast clouds,0.0,0.0
459,Tirau,NZ,2020-02-22 06:43:19,-37.98,175.75,71.01,87,100,3.0,light rain,1.81,0.0
460,Sao Gabriel Da Cachoeira,BR,2020-02-22 06:43:20,-0.13,-67.09,76.03,85,90,0.69,overcast clouds,0.0,0.0
461,Durres,AL,2020-02-22 06:43:20,41.32,19.44,42.8,45,0,6.93,clear sky,0.0,0.0
462,Houma,US,2020-02-22 06:42:30,29.6,-90.72,46.4,86,1,5.82,clear sky,0.0,0.0
463,Kastamonu,TR,2020-02-22 06:43:20,41.5,33.67,31.98,97,100,3.8,snow,0.0,1.56
464,Thinadhoo,MV,2020-02-22 06:43:21,0.53,72.93,83.14,77,98,16.89,moderate rain,7.44,0.0
465,Boyolangu,ID,2020-02-22 06:43:21,-8.12,111.89,87.01,69,17,5.7,moderate rain,3.5,0.0
466,Taoudenni,ML,2020-02-22 06:43:21,22.68,-3.98,68.11,15,0,8.66,clear sky,0.0,0.0
467,Shevchenkove,UA,2020-02-22 06:43:22,49.7,37.17,32.0,95,75,6.71,light shower snow,0.0,0.0
468,Alice Springs,AU,2020-02-22 06:43:22,-23.7,133.88,91.4,12,0,17.22,clear sky,0.0,0.0
469,Castres,FR,2020-02-22 06:43:23,43.58,2.17,39.2,93,15,4.7,few clouds,0.0,0.0
470,Cordoba,AR,2020-02-22 06:39:13,-31.41,-64.18,60.01,87,20,4.7,few clouds,0.0,0.0
471,Port Hardy,CA,2020-02-22 06:43:23,50.7,-127.42,39.2,100,90,3.36,light rain,0.0,0.0
472,Raton,US,2020-02-22 06:43:23,36.9,-104.44,34.0,79,1,4.7,clear sky,0.0,0.0
473,Djougou,BJ,2020-02-22 06:43:23,9.71,1.67,78.8,13,13,10.29,few clouds,0.0,0.0
474,Zyryanskoye,RU,2020-02-22 06:43:24,56.83,86.63,23.45,94,94,5.79,light snow,0.0,0.13
475,Odweyne,SO,2020-02-22 06:43:24,9.41,45.06,73.65,57,22,9.78,few clouds,0.0,0.0
476,Urumqi,CN,2020-02-22 06:43:13,43.8,87.6,28.0,68,54,2.24,broken clouds,0.0,0.0
477,Tessalit,ML,2020-02-22 06:43:24,20.2,1.01,67.96,11,79,11.48,broken clouds,0.0,0.0
478,Mecca,SA,2020-02-22 06:43:24,21.43,39.83,70.07,45,17,2.28,few clouds,0.0,0.0
479,Riobamba,EC,2020-02-22 06:43:25,-1.67,-78.63,49.96,92,100,0.92,light rain,0.31,0.0
480,Nabire,ID,2020-02-22 06:43:25,-3.37,135.48,80.6,91,34,2.66,moderate rain,4.31,0.0
481,Namatanai,PG,2020-02-22 06:43:25,-3.67,152.43,85.08,75,0,13.62,clear sky,0.0,0.0
482,Kukmor,RU,2020-02-22 06:43:25,56.19,50.89,32.45,99,98,6.55,overcast clouds,0.0,0.0
483,Marfino,RU,2020-02-22 06:43:25,55.7,37.38,34.0,86,96,8.95,overcast clouds,0.0,0.0
484,Bandarbeyla,SO,2020-02-22 06:43:26,9.49,50.81,77.29,69,19,11.12,few clouds,0.0,0.0
485,Den Helder,NL,2020-02-22 06:43:26,52.96,4.76,46.99,87,90,28.86,mist,0.0,0.0
486,Muisne,EC,2020-02-22 06:43:26,0.6,-80.03,77.81,87,89,4.83,overcast clouds,0.0,0.0
487,Lubango,AO,2020-02-22 06:43:26,-14.92,13.49,68.0,61,75,6.93,broken clouds,0.0,0.0
488,Cuamba,MZ,2020-02-22 06:43:27,-14.8,36.54,76.73,87,36,1.77,scattered clouds,0.0,0.0
489,Tiznit,MA,2020-02-22 06:43:27,29.58,-9.5,57.2,24,0,20.24,clear sky,0.0,0.0
490,San Quintin,MX,2020-02-22 06:43:27,30.48,-115.95,61.36,77,100,6.02,overcast clouds,0.0,0.0
491,Deputatskiy,RU,2020-02-22 06:43:27,69.3,139.9,-5.28,100,98,1.95,overcast clouds,0.0,0.0
492,Erzin,TR,2020-02-22 06:43:27,36.96,36.2,52.0,100,75,3.36,broken clouds,0.0,0.0
493,Chebarkul,RU,2020-02-22 06:43:28,54.97,60.36,26.76,88,85,2.93,overcast clouds,0.0,0.0
494,Santa Rosa,PH,2020-02-22 06:39:01,14.31,121.11,89.6,40,20,17.22,few clouds,0.0,0.0
495,Lebanon,US,2020-02-22 06:43:28,36.21,-86.29,30.0,79,1,3.06,clear sky,0.0,0.0
496,Myrhorod,UA,2020-02-22 06:43:29,49.97,33.61,32.16,86,38,6.17,scattered clouds,0.0,0.0
497,Kununurra,AU,2020-02-22 06:43:29,-15.77,128.73,102.2,29,60,4.7,broken clouds,0.0,0.0
498,Pisco,PE,2020-02-22 06:43:29,-13.7,-76.22,73.4,83,20,6.93,few clouds,0.0,0.0
499,Dong Hoi,VN,2020-02-22 06:43:29,17.48,106.6,74.77,69,10,7.92,light rain,0.5,0.0
500,Shitanjing,CN,2020-02-22 06:43:29,39.23,106.34,38.43,21,0,3.18,clear sky,0.0,0.0
501,Mwingi,KE,2020-02-22 06:43:30,-0.93,38.06,74.08,77,65,2.35,broken clouds,0.0,0.0
502,Kalmunai,LK,2020-02-22 06:43:30,7.42,81.82,82.17,78,86,19.01,light rain,0.31,0.0
503,Filadelfia,US,2020-02-22 06:42:10,39.95,-75.16,28.99,49,1,3.36,clear sky,0.0,0.0
504,Gelemso,ET,2020-02-22 06:43:31,8.82,40.52,74.16,49,6,0.65,clear sky,0.0,0.0
505,Nelson Bay,AU,2020-02-22 06:43:31,-32.72,152.15,75.0,78,75,16.11,broken clouds,0.0,0.0
506,Kindu,CD,2020-02-22 06:43:31,-2.95,25.95,75.06,94,96,1.68,light rain,0.5,0.0
507,Kendal,GB,2020-02-22 06:43:31,54.33,-2.75,46.0,90,100,8.01,light rain,2.13,0.0
508,Te Anau,NZ,2020-02-22 06:43:32,-45.42,167.72,53.92,50,19,2.55,few clouds,0.0,0.0
509,Auki,SB,2020-02-22 06:43:32,-8.77,160.7,85.08,72,42,7.4,scattered clouds,0.0,0.0
510,Beihai,CN,2020-02-22 06:43:32,21.48,109.1,67.51,79,0,8.32,clear sky,0.0,0.0
511,Tocopilla,CL,2020-02-22 06:43:32,-22.09,-70.2,59.36,68,54,4.7,broken clouds,0.0,0.0
512,Plattsburgh,US,2020-02-22 06:43:32,44.7,-73.45,26.6,45,1,6.93,clear sky,0.0,0.0
513,Talaya,RU,2020-02-22 06:43:33,61.38,152.75,-17.9,90,52,0.25,broken clouds,0.0,0.0
514,Arroyo,ES,2020-02-22 06:43:33,41.61,-4.8,34.0,86,0,3.36,clear sky,0.0,0.0
515,Tual,ID,2020-02-22 06:43:33,-5.67,132.75,82.18,79,95,18.92,light rain,1.38,0.0
516,Ghanzi,BW,2020-02-22 06:43:33,-21.57,21.78,73.67,59,51,4.03,broken clouds,0.0,0.0
517,Puerto Lleras,CO,2020-02-22 06:43:33,3.02,-73.4,77.68,61,100,2.59,overcast clouds,0.0,0.0
518,Tailai,CN,2020-02-22 06:43:34,46.38,123.4,22.5,75,42,9.48,scattered clouds,0.0,0.0
519,Wajima,JP,2020-02-22 06:43:34,37.4,136.9,48.2,100,75,24.16,light intensity shower rain,0.0,0.0
520,Faanui,PF,2020-02-22 06:43:34,-16.48,-151.75,82.38,78,8,13.58,light rain,0.31,0.0
521,Kamina,CD,2020-02-22 06:43:34,-8.74,24.99,72.84,81,89,1.83,overcast clouds,0.0,0.0
522,Ibicarai,BR,2020-02-22 06:43:34,-14.87,-39.59,78.8,100,40,2.24,light rain,0.0,0.0
523,Namibe,AO,2020-02-22 06:43:35,-15.2,12.15,75.15,75,79,15.03,broken clouds,0.0,0.0
524,Port Macquarie,AU,2020-02-22 06:43:35,-31.43,152.92,71.01,100,90,6.93,light rain,0.0,0.0
525,Spydeberg,NO,2020-02-22 06:43:35,59.62,11.09,45.0,93,100,26.4,moderate rain,0.0,0.0
526,Aitape,PG,2020-02-22 06:43:35,-3.14,142.35,82.83,79,99,11.86,light rain,0.25,0.0
527,Svetlyy,RU,2020-02-22 06:43:35,54.67,20.13,39.2,80,40,11.18,scattered clouds,0.0,0.0
528,Harper,LR,2020-02-22 06:43:36,4.38,-7.72,76.57,93,97,1.92,overcast clouds,0.0,0.0
529,Ixtapa,MX,2020-02-22 06:43:36,20.7,-105.2,75.0,88,40,3.65,scattered clouds,0.0,0.0
530,Negombo,LK,2020-02-22 06:43:36,7.21,79.84,91.4,52,40,16.11,scattered clouds,0.0,0.0
531,Miandrivazo,MG,2020-02-22 06:43:36,-19.52,45.47,80.89,73,100,3.31,overcast clouds,0.0,0.0
532,Weihai,CN,2020-02-22 06:43:37,37.5,122.11,37.35,61,29,18.68,scattered clouds,0.0,0.0
533,Tolaga Bay,NZ,2020-02-22 06:43:37,-38.37,178.3,72.64,76,45,20.85,scattered clouds,0.0,0.0
534,Buta,CD,2020-02-22 06:43:37,2.79,24.73,76.24,44,91,1.05,overcast clouds,0.0,0.0
535,High Level,CA,2020-02-22 06:43:37,58.52,-117.14,37.4,55,40,9.17,scattered clouds,0.0,0.0
536,Marsa Matruh,EG,2020-02-22 06:43:37,31.35,27.25,57.2,58,75,8.05,broken clouds,0.0,0.0
537,Moses Lake,US,2020-02-22 06:43:38,47.13,-119.28,32.0,68,1,4.7,clear sky,0.0,0.0
538,Umm Lajj,SA,2020-02-22 06:43:38,25.02,37.27,65.95,30,17,7.7,few clouds,0.0,0.0
539,Boguchany,RU,2020-02-22 06:43:38,58.38,97.45,21.87,90,86,4.43,overcast clouds,0.0,0.0
540,Maridi,SS,2020-02-22 06:43:38,4.92,29.47,78.12,34,88,8.63,light rain,0.19,0.0
541,Xinzhi,CN,2020-02-22 06:43:39,36.5,111.7,41.2,22,0,7.67,clear sky,0.0,0.0
542,Hurghada,EG,2020-02-22 06:43:39,27.26,33.81,60.8,48,0,6.93,clear sky,0.0,0.0
543,Santa Catarina De Tepehuanes,MX,2020-02-22 06:43:39,25.35,-105.73,51.85,66,60,2.46,broken clouds,0.0,0.0
544,Ratne,UA,2020-02-22 06:43:39,51.67,24.53,30.2,92,26,6.71,mist,0.0,0.0
545,Presidente Epitacio,BR,2020-02-22 06:43:39,-21.76,-52.12,73.58,91,100,6.42,light rain,0.81,0.0
546,Nuuk,GL,2020-02-22 06:43:40,64.18,-51.72,12.2,85,97,8.05,light snow,0.0,0.0
547,Ondangwa,NA,2020-02-22 06:43:40,-17.92,15.95,78.8,78,40,1.12,scattered clouds,0.0,0.0
548,Kathu,TH,2020-02-22 06:43:40,7.92,98.33,86.0,58,40,6.93,light rain,0.0,0.0
549,Evensk,RU,2020-02-22 06:43:40,61.95,159.23,-19.1,77,0,2.24,clear sky,0.0,0.0
550,Mayumba,GA,2020-02-22 06:43:40,-3.43,10.66,83.95,79,100,5.35,light rain,0.69,0.0
551,Dallas,US,2020-02-22 06:39:09,32.77,-96.78,44.6,45,75,3.36,broken clouds,0.0,0.0
552,Roald,NO,2020-02-22 06:43:41,62.58,6.13,42.01,86,40,21.92,scattered clouds,0.0,0.0
553,Kidal,ML,2020-02-22 06:43:41,18.44,1.41,67.24,11,66,12.53,broken clouds,0.0,0.0
554,Kushima,JP,2020-02-22 06:43:42,31.46,131.23,66.2,45,20,26.4,few clouds,0.0,0.0
555,Onega,RU,2020-02-22 06:43:42,63.91,38.14,34.05,80,100,20.4,overcast clouds,0.0,0.0
556,Maxixe,MZ,2020-02-22 06:43:42,-23.86,35.35,80.6,88,75,8.3,drizzle,0.0,0.0
557,San Juan,AR,2020-02-22 06:43:04,-31.54,-68.54,66.7,34,71,8.88,broken clouds,0.0,0.0
558,Tirano,IT,2020-02-22 06:43:42,46.22,10.17,37.0,53,24,1.41,few clouds,0.0,0.0
559,Srednekolymsk,RU,2020-02-22 06:43:43,67.45,153.68,-21.41,100,82,1.36,broken clouds,0.0,0.0
560,Espanola,US,2020-02-22 06:43:19,35.99,-106.08,36.0,80,1,1.34,clear sky,0.0,0.0
561,Bumba,CD,2020-02-22 06:43:43,2.18,22.47,76.26,71,98,1.52,overcast clouds,0.0,0.0
